City_ID,City,Lat,Lng,Max Temp,Humidity,Cloudiness,Wind Speed,Country,Date
0,Bredasdorp,-34.5322,20.0403,62.13,65,59,21.65,ZA,11/26/2024
1,George Town,5.4112,100.3354,78.73,88,40,5.99,MY,11/26/2024
2,Kapuskasing,49.4169,-82.4331,30.29,100,100,4.61,CA,11/26/2024
3,Port Elizabeth,-33.918,25.5701,68.29,75,0,13.8,ZA,11/26/2024
4,Juneau,58.3019,-134.4197,32.0,95,100,8.05,US,11/26/2024
5,Ikovka,55.6089,64.9375,17.47,93,5,2.39,RU,11/26/2024
6,Haiku-Pauwela,20.9219,-156.3051,67.21,88,20,8.99,US,11/26/2024
7,Vernon,50.2581,-119.2691,31.75,82,87,3.0,CA,11/26/2024
8,Naryan-Mar,67.6713,53.087,34.81,99,100,22.86,RU,11/26/2024
9,Videira,-27.0083,-51.1517,80.64,50,92,2.13,BR,11/26/2024
10,Viedma,-40.8135,-62.9967,75.51,20,75,20.92,AR,11/26/2024
11,Waitangi,-43.9535,-176.5597,53.82,87,100,8.99,NZ,11/26/2024
12,Edinburgh of the Seven Seas,-37.0676,-12.3116,57.2,95,100,32.93,SH,11/26/2024
13,Puerto Ayora,-0.7393,-90.3518,73.54,87,53,5.99,EC,11/26/2024
14,Constanța,44.1833,28.65,36.7,68,10,3.44,RO,11/26/2024
15,Hamilton,39.1834,-84.5333,44.76,67,0,10.36,US,11/26/2024
16,Charlestown,-32.95,151.6667,72.68,86,51,1.99,AU,11/26/2024
17,Port-aux-Français,-49.35,70.2167,37.53,79,30,38.03,TF,11/26/2024
18,Margaret River,-33.95,115.0667,48.2,87,36,6.51,AU,11/26/2024
19,Palmares do Sul,-30.2578,-50.5097,74.23,83,100,3.69,BR,11/26/2024
20,Anadyr,64.75,177.4833,19.9,86,100,4.47,RU,11/26/2024
21,Ponta Delgada,37.7333,-25.6667,68.72,94,40,11.5,PT,11/26/2024
22,West Island,-12.1568,96.8225,80.58,94,75,14.97,CC,11/26/2024
23,Adamstown,-25.066,-130.1015,72.1,79,48,18.43,PN,11/26/2024
24,Ilulissat,69.2167,-51.1,17.62,67,75,20.71,GL,11/26/2024
25,Iqaluit,63.7506,-68.5145,10.13,61,75,6.91,CA,11/26/2024
26,Fort Abbas,29.1925,72.8536,71.62,28,0,6.85,PK,11/26/2024
27,Xiuyan,40.2928,123.2744,23.34,42,52,4.68,CN,11/26/2024
28,Palikir,6.9248,158.1611,81.34,83,40,4.61,FM,11/26/2024
29,Albany,42.6001,-73.9662,43.65,95,100,3.36,US,11/26/2024
30,Puerto Baquerizo Moreno,-0.9,-89.6,77.99,65,75,13.8,EC,11/26/2024
31,Saint Paul Harbor,57.79,-152.4072,24.31,86,0,0.0,US,11/26/2024
32,Aasiaat,68.7098,-52.8699,16.52,71,97,17.07,GL,11/26/2024
33,Novodvinsk,64.4165,40.8122,38.95,91,100,12.62,RU,11/26/2024
34,Afaahiti,-17.75,-149.2833,77.4,82,60,13.22,PF,11/26/2024
35,Hailey,43.5196,-114.3153,30.79,75,100,8.05,US,11/26/2024
36,Sur,22.5667,59.5289,77.88,66,0,2.82,OM,11/26/2024
37,Howrah,22.5892,88.3103,68.0,77,29,0.0,IN,11/26/2024
38,Invercargill,-46.4,168.35,52.02,98,100,3.0,NZ,11/26/2024
39,Isafjordur,66.0755,-23.124,42.84,61,75,11.5,IS,11/26/2024
40,Nikolayevsk-on-Amur,53.1406,140.73,14.61,96,99,4.09,RU,11/26/2024
41,Susuman,62.7833,148.1667,-34.2,97,16,0.78,RU,11/26/2024
42,Stanley,54.868,-1.6985,39.22,86,20,1.14,GB,11/26/2024
43,Dāmghān,36.1683,54.348,54.0,42,3,4.76,IR,11/26/2024
44,Grytviken,-54.2811,-36.5092,36.91,58,24,5.3,GS,11/26/2024
45,Tôlanaro,-25.0319,46.9987,80.67,74,20,28.77,MG,11/26/2024
46,West Bay,19.3667,-81.4167,84.27,74,20,14.97,KY,11/26/2024
47,Vila do Maio,15.1333,-23.2167,77.13,80,6,12.71,CV,11/26/2024
48,Jayapura,-2.5333,140.7,78.19,93,56,3.98,ID,11/26/2024
49,Broken Hill,-31.95,141.4333,70.36,61,85,18.25,AU,11/26/2024
50,Keflavik,64.0049,-22.5624,41.43,81,75,20.71,IS,11/26/2024
51,Lebu,-37.6167,-73.65,59.56,57,1,8.75,CL,11/26/2024
52,Arraial do Cabo,-22.9661,-42.0278,84.16,61,0,17.27,BR,11/26/2024
53,Sharypovo,55.5403,89.2008,19.0,79,35,5.57,RU,11/26/2024
54,Ksar Chellala,35.2122,2.3189,61.03,46,20,4.29,DZ,11/26/2024
55,Itamaracá,-7.7478,-34.8256,82.26,58,100,9.51,BR,11/26/2024
56,Sitka,57.0531,-135.33,39.09,87,100,5.75,US,11/26/2024
57,Shortandy,51.7006,70.9994,15.93,86,11,6.31,KZ,11/26/2024
58,Vila Franca do Campo,37.7167,-25.4333,68.41,99,1,10.85,PT,11/26/2024
59,Iskateley,67.6803,53.1512,34.74,99,100,22.84,RU,11/26/2024
60,Nadym,65.5333,72.5167,29.64,87,100,19.64,RU,11/26/2024
61,Sault Ste. Marie,46.5168,-84.3333,35.89,93,100,17.27,CA,11/26/2024
62,Yellowknife,62.456,-114.3525,13.41,96,100,8.05,CA,11/26/2024
63,Chegdomyn,51.1167,133.0167,19.83,99,100,2.64,RU,11/26/2024
64,Laela,-8.5667,32.05,67.33,71,92,1.95,TZ,11/26/2024
65,Burutu,5.3509,5.5076,83.93,67,26,10.47,NG,11/26/2024
66,Arês,-6.1944,-35.1603,85.19,52,59,12.84,BR,11/26/2024
67,Alvorada,-12.48,-49.1247,89.24,50,39,5.99,BR,11/26/2024
68,Popondetta,-8.7537,148.2534,74.28,95,22,2.95,PG,11/26/2024
69,Puerto Natales,-51.7236,-72.4875,63.05,48,0,10.36,CL,11/26/2024
70,Ericeira,38.9627,-9.4156,63.79,69,20,4.61,PT,11/26/2024
71,Koungheul,13.9833,-14.8,99.0,11,0,9.4,SN,11/26/2024
72,Gonzales,30.2385,-90.9201,67.98,85,100,3.44,US,11/26/2024
73,Launceston,-41.45,147.1667,60.44,94,100,2.3,AU,11/26/2024
74,Qaqortoq,60.7167,-46.0333,14.18,75,73,2.93,GL,11/26/2024
75,Tateyama,34.9833,139.8667,66.13,94,75,16.11,JP,11/26/2024
76,Marsabit,2.3284,37.9899,71.83,65,62,10.87,KE,11/26/2024
77,Blackmans Bay,-43.0167,147.3167,60.93,93,100,2.75,AU,11/26/2024
78,Inyati,-19.6756,28.8469,68.18,78,100,6.38,ZW,11/26/2024
79,Kristiansund,63.1115,7.732,40.12,70,75,6.91,NO,11/26/2024
80,Mejit,10.2753,170.8646,82.99,79,88,20.4,MH,11/26/2024
81,Bonthe,7.5264,-12.505,84.81,65,15,11.12,SL,11/26/2024
82,Port Mathurin,-19.6833,63.4167,76.37,78,10,19.48,MU,11/26/2024
83,Mugia,43.1041,-9.2179,60.91,84,90,22.7,ES,11/26/2024
84,Utrik,11.2278,169.8474,83.59,76,99,19.13,MH,11/26/2024
85,Gurun,5.8172,100.4738,69.98,98,100,2.64,MY,11/26/2024
86,Codrington,-38.2667,141.9667,63.77,95,100,8.05,AU,11/26/2024
87,Cochrane,51.1834,-114.4687,16.86,89,19,5.55,CA,11/26/2024
88,Sofifi,0.7349,127.576,79.65,85,96,4.61,ID,11/26/2024
89,Papatowai,-46.5619,169.4708,50.72,94,100,2.62,NZ,11/26/2024
90,Yelovo,57.0538,54.9207,20.86,90,5,3.58,RU,11/26/2024
91,Hanzhong,33.0728,107.0303,40.48,54,1,3.11,CN,11/26/2024
92,Smara,26.7384,-11.6719,85.91,14,100,9.37,EH,11/26/2024
93,Hrodna,53.6884,23.8258,36.09,91,20,5.66,BY,11/26/2024
94,Sterling,39.0062,-77.4286,62.85,58,40,26.46,US,11/26/2024
95,Vorgashor,67.5833,63.95,29.12,97,100,18.68,RU,11/26/2024
96,Nuuk,64.1835,-51.7216,21.81,73,75,15.01,GL,11/26/2024
97,Roquetas de Mar,36.7642,-2.6148,66.2,82,90,5.17,ES,11/26/2024
98,At Tāj,24.2049,23.2857,56.19,44,3,9.1,LY,11/26/2024
99,Chemolgan,43.1897,76.5292,41.52,35,0,5.48,KZ,11/26/2024
100,Bilibino,68.0546,166.4372,-25.82,94,13,3.2,RU,11/26/2024
101,Bratsk,56.1325,101.6142,21.69,96,99,6.6,RU,11/26/2024
102,San Antonio de Palé,-1.4014,5.6325,79.29,81,75,12.06,GQ,11/26/2024
103,Labrador City,52.9463,-66.9114,28.18,91,75,5.75,CA,11/26/2024
104,Tiksi,71.6872,128.8694,-1.43,81,100,17.29,RU,11/26/2024
105,Berastagi,3.1929,98.5092,62.4,100,100,2.01,ID,11/26/2024
106,Gandajika,-6.75,23.95,66.72,96,74,2.17,CD,11/26/2024
107,High River,50.5834,-113.8687,20.32,87,14,3.4,CA,11/26/2024
108,Dunedin,-45.8742,170.5036,50.81,99,100,3.0,NZ,11/26/2024
109,Rémire-Montjoly,4.9167,-52.2667,89.64,62,75,13.8,GF,11/26/2024
110,Bodaybo,57.8506,114.1933,-3.5,100,100,1.48,RU,11/26/2024
111,Kirensk,57.7853,108.1119,4.14,98,98,3.89,RU,11/26/2024
112,Atafu Village,-8.5421,-172.5159,82.6,79,65,16.31,TK,11/26/2024
113,Sumberpucung,-8.1586,112.4829,73.38,96,100,2.15,ID,11/26/2024
114,Bethel,41.3712,-73.414,52.52,89,100,1.01,US,11/26/2024
115,Caucayá,-0.1934,-74.7819,93.79,45,44,3.0,CO,11/26/2024
116,Usogorsk,63.4106,48.6872,37.44,93,100,14.23,RU,11/26/2024
117,Matiguás,12.8373,-85.4622,84.2,64,98,8.57,NI,11/26/2024
118,Berbera,10.4396,45.0143,81.36,67,8,12.06,SO,11/26/2024
119,Udachny,66.4167,112.4,-7.92,99,75,8.55,RU,11/26/2024
120,Mossamedes,-15.1961,12.1522,70.7,76,21,7.27,AO,11/26/2024
121,Petropavlovsk-Kamchatskiy,53.0452,158.6483,37.99,45,75,17.9,RU,11/26/2024
122,Ushuaia,-54.8,-68.3,53.26,50,20,18.41,AR,11/26/2024
123,Narvik,68.4384,17.4272,25.27,85,98,4.99,NO,11/26/2024
124,Alo,6.5486,4.2686,82.2,71,9,9.95,NG,11/26/2024
125,Okhotsk,59.3833,143.3,3.69,78,83,7.99,RU,11/26/2024
126,Flin Flon,54.7682,-101.865,10.24,85,100,2.3,CA,11/26/2024
127,Nizhnesortymskiy,62.4397,71.7603,31.15,84,100,19.62,RU,11/26/2024
128,Anderson,34.5334,-82.6499,66.69,84,40,10.36,US,11/26/2024
129,Varėna,54.2167,24.5667,34.93,94,19,4.56,LT,11/26/2024
130,Esim,4.8699,-2.2405,82.29,72,3,10.31,GH,11/26/2024
131,Mandalgovi,45.7625,106.2708,21.47,51,6,27.09,MN,11/26/2024
132,Punta Arenas,-53.15,-70.9167,50.11,71,0,12.66,CL,11/26/2024
133,Porto-Novo,6.4965,2.6036,87.62,69,6,8.77,BJ,11/26/2024
134,Whitehorse,60.7161,-135.0538,9.37,84,75,0.0,CA,11/26/2024
135,Solnechnyy,50.7214,136.6319,19.09,86,100,4.74,RU,11/26/2024
136,Dudinka,69.4058,86.1778,27.45,93,100,24.7,RU,11/26/2024
137,Bel Ombre,-4.6167,55.4167,80.44,78,20,2.3,SC,11/26/2024
138,Fortuna,40.5982,-124.1573,46.92,98,100,5.75,US,11/26/2024
139,Ribeira Grande,38.5167,-28.7,70.2,83,20,18.99,PT,11/26/2024
140,Xinji,37.9028,115.2036,32.2,40,24,13.65,CN,11/26/2024
141,Buala,-8.145,159.5921,80.1,83,84,9.37,SB,11/26/2024
142,Kuusamo,65.9667,29.1833,37.44,93,100,13.8,FI,11/26/2024
143,Tuba City,36.135,-111.2399,56.37,54,92,11.99,US,11/26/2024
144,Inarajan Village,13.2736,144.7484,81.79,86,86,21.63,GU,11/26/2024
145,Tura,25.5198,90.2201,60.76,89,30,3.98,IN,11/26/2024
146,Olonkinbyen,70.9221,-8.7187,24.22,62,94,9.51,SJ,11/26/2024
147,Manismata,-2.4667,111.0333,76.1,96,100,2.48,ID,11/26/2024
148,Ambon City,-3.6954,128.1814,81.88,95,40,8.05,ID,11/26/2024
149,Kralendijk,12.15,-68.2667,89.58,62,20,16.11,BQ,11/26/2024
150,El Calafate,-50.3408,-72.2768,57.63,53,43,6.04,AR,11/26/2024
151,Oamaru,-45.0784,170.9801,53.38,92,100,6.96,NZ,11/26/2024
152,Jacmel,18.2342,-72.5347,80.94,77,99,3.18,HT,11/26/2024
153,Ulladulla,-35.35,150.4667,68.9,69,46,4.27,AU,11/26/2024
154,Katsuura,35.1333,140.3,67.05,93,100,39.73,JP,11/26/2024
155,Cockburn Town,21.4612,-71.1419,80.53,81,100,19.04,TC,11/26/2024
156,Wailua Homesteads,22.0669,-159.378,65.19,88,75,8.05,US,11/26/2024
157,Les Cayes,18.2,-73.75,80.26,81,100,11.45,HT,11/26/2024
158,Mahibadhoo,3.7833,72.9667,82.26,76,99,11.86,MV,11/26/2024
159,Murray Bridge,-35.1167,139.2667,65.03,80,86,9.57,AU,11/26/2024
160,Salair,54.2312,85.7972,16.43,87,62,1.81,RU,11/26/2024
161,Mount Gambier,-37.8333,140.7667,62.28,96,99,2.46,AU,11/26/2024
162,San Luis de la Loma,17.2706,-100.8939,83.19,65,2,3.71,MX,11/26/2024
163,La Passe,45.5549,-0.8967,54.12,90,100,9.48,FR,11/26/2024
164,Kismayo,-0.3582,42.5454,81.46,80,34,9.98,SO,11/26/2024
165,Mount Pearl,47.5166,-52.7813,41.32,97,100,17.27,CA,11/26/2024
166,Mālvan,16.0667,73.4667,76.37,52,62,7.11,IN,11/26/2024
167,Luganville,-15.5333,167.1667,77.47,89,95,2.28,VU,11/26/2024
168,Lihue,21.9789,-159.3672,65.79,88,75,8.05,US,11/26/2024
169,Labuan,5.2767,115.2417,82.76,83,20,1.14,MY,11/26/2024
170,Avarua,-21.2078,-159.775,73.45,83,20,1.14,CK,11/26/2024
171,Gisborne,-38.6533,178.0042,56.93,85,39,5.46,NZ,11/26/2024
172,Chonchi,-42.6128,-73.8092,57.11,58,38,4.59,CL,11/26/2024
173,Aljezur,37.3191,-8.8033,60.06,60,74,4.14,PT,11/26/2024
174,Jamestown,42.097,-79.2353,42.03,84,75,19.57,US,11/26/2024
175,Las Lajitas,-24.6833,-64.25,92.98,45,100,7.9,AR,11/26/2024
176,Singoli,24.9667,75.3,65.95,29,0,2.55,IN,11/26/2024
177,Gryfino,53.2524,14.4883,46.65,79,64,7.43,PL,11/26/2024
178,Mahina,-17.5065,-149.489,82.17,69,0,2.3,PF,11/26/2024
179,Aral,40.5156,81.2636,32.72,52,6,6.38,CN,11/26/2024
180,Okoneshnikovo,54.8377,75.0834,10.38,93,13,4.38,RU,11/26/2024
181,Saipan,15.1355,145.701,83.1,78,40,18.41,MP,11/26/2024
182,Kirkland Lake,48.1446,-80.0377,34.09,80,100,0.0,CA,11/26/2024
183,Badger,64.8,-147.5333,12.36,83,100,3.44,US,11/26/2024
184,Houndé,11.5,-3.5167,89.46,12,38,7.74,BF,11/26/2024
185,Chippewa Falls,44.9369,-91.3929,23.41,75,20,13.8,US,11/26/2024
186,Tibati,6.4667,12.6333,79.93,24,5,8.28,CM,11/26/2024
187,Vadsø,70.0744,29.7487,26.76,80,0,14.97,NO,11/26/2024
188,Cidreira,-30.1811,-50.2056,70.34,93,93,6.15,BR,11/26/2024
189,Erenhot,43.6475,111.9767,11.12,40,1,17.98,CN,11/26/2024
190,Ngorongoro,-3.2397,35.4875,57.65,68,52,2.77,TZ,11/26/2024
191,Palmas,-10.2128,-48.3603,87.67,58,75,8.05,BR,11/26/2024
192,Puerto Francisco de Orellana,-0.4667,-76.9667,82.45,83,75,3.51,EC,11/26/2024
193,Alice Springs,-23.7,133.8833,72.95,73,93,8.05,AU,11/26/2024
194,Kochi,9.9399,76.2602,78.78,87,100,3.2,IN,11/26/2024
195,Baud,20.8333,84.3167,63.3,58,64,2.51,IN,11/26/2024
196,Hermanus,-34.4187,19.2345,63.81,73,27,23.49,ZA,11/26/2024
197,Hawaiian Paradise Park,19.5933,-154.9731,67.89,88,40,6.91,US,11/26/2024
198,Ghat,24.9647,10.1728,64.04,24,5,7.92,LY,11/26/2024
199,Brainerd,46.358,-94.2008,21.06,81,100,6.91,US,11/26/2024
200,Rimouski,48.4488,-68.524,37.58,89,100,3.47,CA,11/26/2024
201,Newman,37.3138,-121.0208,54.03,94,100,0.63,US,11/26/2024
202,Walvis Bay,-22.9575,14.5053,62.76,75,23,24.16,NA,11/26/2024
203,Mortyq,50.7475,56.5056,25.18,75,3,8.12,KZ,11/26/2024
204,Bargaal,11.2864,51.0773,79.07,72,17,10.33,SO,11/26/2024
205,Chivilcoy,-34.8957,-60.0167,84.06,55,92,2.91,AR,11/26/2024
206,Talnakh,69.4865,88.3972,23.23,94,100,16.15,RU,11/26/2024
207,Magistral'nyy,56.1725,107.4458,4.37,98,98,2.13,RU,11/26/2024
208,Kantagi,43.5264,68.5775,47.08,40,22,2.89,KZ,11/26/2024
209,Le Port,-20.9373,55.2919,76.96,99,92,5.23,RE,11/26/2024
210,Curuzú Cuatiá,-29.7917,-58.0546,69.39,96,100,14.29,AR,11/26/2024
211,Gadzhiyevo,69.2551,33.3362,33.19,74,100,17.63,RU,11/26/2024
212,Kapaa,22.0752,-159.319,66.52,88,75,8.05,US,11/26/2024
213,Pathein,16.7833,94.7333,72.07,73,98,6.87,MM,11/26/2024
214,Chibougamau,49.9168,-74.3659,28.02,93,100,5.75,CA,11/26/2024
215,Longyearbyen,78.2186,15.6401,12.04,79,100,12.66,SJ,11/26/2024
216,Obuasi,6.206,-1.6619,86.5,44,14,0.89,GH,11/26/2024
217,Hammerfest,70.6634,23.6821,32.45,64,100,11.5,NO,11/26/2024
218,St. John's,47.5649,-52.7093,42.15,97,100,14.97,CA,11/26/2024
219,Saldanha,-33.0117,17.9442,64.45,73,35,13.15,ZA,11/26/2024
220,Hasaki,35.7333,140.8333,65.39,91,100,37.2,JP,11/26/2024
221,Tannum Sands,-23.9504,151.3693,73.29,94,75,4.61,AU,11/26/2024
222,Empalme,27.9667,-110.8167,77.85,28,100,0.98,MX,11/26/2024
223,Shanklin,50.6261,-1.1785,44.42,56,53,4.63,GB,11/26/2024
224,Brady,31.1352,-99.3351,48.65,53,0,5.75,US,11/26/2024
225,Polyarny,69.1989,33.4478,33.21,75,100,18.12,RU,11/26/2024
226,Praia da Vitória,38.7333,-27.0667,70.05,78,40,19.64,PT,11/26/2024
227,Uacu Cungo,-11.3634,15.1208,67.68,93,98,4.79,AO,11/26/2024
228,Władysławowo,54.7909,18.4009,45.93,87,100,12.15,PL,11/26/2024
229,Queenstown,-31.8976,26.8753,63.28,81,73,13.06,ZA,11/26/2024
230,Eyl,7.9803,49.8164,80.24,77,0,16.67,SO,11/26/2024
231,Miquelon,47.0975,-56.3814,44.71,81,72,22.53,PM,11/26/2024
232,East London,-33.0153,27.9116,63.54,94,100,12.66,ZA,11/26/2024
233,Revda,56.801,59.9303,21.04,90,5,2.19,RU,11/26/2024
234,Dakoro,14.5106,6.765,77.68,19,4,10.96,NE,11/26/2024
235,Glendive,47.1053,-104.7125,11.82,85,20,5.75,US,11/26/2024
236,Port Isabel,26.0734,-97.2086,68.07,88,100,12.66,US,11/26/2024
237,Richards Bay,-28.783,32.0377,75.61,91,39,4.9,ZA,11/26/2024
238,Crane,31.3974,-102.3501,55.17,42,63,12.15,US,11/26/2024
239,Yershov,51.3513,48.2766,28.99,73,68,8.32,RU,11/26/2024
240,Neryungri,56.6709,124.6491,-6.75,97,100,4.68,RU,11/26/2024
241,Lensk,60.7253,114.9278,0.03,95,99,7.02,RU,11/26/2024
242,Carnarvon,-24.8667,113.6333,78.01,30,0,24.4,AU,11/26/2024
243,Yinchuan,38.4681,106.2731,29.48,31,0,5.75,CN,11/26/2024
244,Brookings,44.3114,-96.7984,24.46,71,0,5.75,US,11/26/2024
245,Akonolinga,3.7667,12.25,78.17,54,80,2.75,CM,11/26/2024
246,Greenville,35.6127,-77.3663,65.12,91,65,8.05,US,11/26/2024
247,Nālūt,30.3333,10.85,59.23,40,0,4.18,LY,11/26/2024
248,Manacapuru,-3.2997,-60.6206,90.18,51,60,3.15,BR,11/26/2024
249,Togur,58.3631,82.8265,28.78,81,15,10.4,RU,11/26/2024
250,Nago,26.5881,127.9761,65.26,70,95,13.94,JP,11/26/2024
251,College,64.8569,-147.8028,12.45,76,100,3.44,US,11/26/2024
252,Luwuk,-0.9516,122.7875,74.01,88,100,4.0,ID,11/26/2024
253,Kenai,60.5544,-151.2583,27.14,99,100,3.44,US,11/26/2024
254,Aligoodarz,33.4006,49.6949,45.05,82,63,6.46,IR,11/26/2024
255,Berdigestyakh,62.0989,126.6992,-30.57,99,94,2.53,RU,11/26/2024
256,Aykhal,66.0,111.5,-3.59,100,78,9.84,RU,11/26/2024
257,Port Lincoln,-34.7333,135.8667,59.2,77,27,17.98,AU,11/26/2024
258,As Sulayyil,20.4607,45.5779,77.23,22,0,9.53,SA,11/26/2024
259,Uturoa,-16.7333,-151.4333,79.99,80,61,12.12,PF,11/26/2024
260,Hailākāndi,24.6833,92.5667,62.11,95,26,2.24,IN,11/26/2024
261,Pangai,-19.8,-174.35,75.56,85,100,16.96,TO,11/26/2024
262,Kialla,-36.4161,145.3954,66.96,92,98,10.69,AU,11/26/2024
263,Tajerouine,35.8917,8.5528,59.29,42,99,2.57,TN,11/26/2024
264,Manta,-0.95,-80.7333,78.58,78,75,13.94,EC,11/26/2024
265,Ust-Nera,64.5667,143.2,-23.84,96,81,2.75,RU,11/26/2024
266,Kalkaman,51.9525,76.0211,19.33,79,22,10.87,KZ,11/26/2024
267,Bealanana,-14.55,48.7333,69.62,84,46,3.09,MG,11/26/2024
268,Taltal,-25.4,-70.4833,65.73,72,19,7.02,CL,11/26/2024
269,Chul'man,56.8479,124.9104,-9.72,99,100,3.58,RU,11/26/2024
270,Lennox,33.9381,-118.3526,63.72,82,100,5.75,US,11/26/2024
271,Reggane,26.7158,0.1714,76.78,22,60,9.08,DZ,11/26/2024
272,Portland,45.5234,-122.6762,43.2,96,75,3.44,US,11/26/2024
273,Ankang,32.68,109.0172,42.82,64,25,1.54,CN,11/26/2024
274,Nizhneangarsk,55.7833,109.55,4.33,84,69,7.14,RU,11/26/2024
275,Helena Valley West Central,46.6629,-112.0604,34.52,73,13,0.96,US,11/26/2024
276,Phang Nga,8.4509,98.5298,74.68,94,99,3.2,TH,11/26/2024
277,Thompson,55.7435,-97.8558,14.16,85,75,3.44,CA,11/26/2024
278,Hotan,37.0997,79.9269,36.7,32,60,2.68,CN,11/26/2024
279,Jaleshwar,26.6471,85.8008,66.36,56,42,5.64,NP,11/26/2024
280,Fale old settlement,-9.3852,-171.2468,82.92,78,57,13.94,TK,11/26/2024
281,Muynak,43.7683,59.0214,41.65,72,2,8.25,UZ,11/26/2024
282,Hadibu,12.65,54.0333,78.66,67,9,8.88,YE,11/26/2024
283,Sakakah,29.9697,40.2064,58.57,48,40,12.86,SA,11/26/2024
284,Kenora,49.8167,-94.4337,20.37,100,100,5.75,CA,11/26/2024
285,Visakhapatnam,17.69,83.2093,76.89,57,40,6.91,IN,11/26/2024
286,Kostomuksha,64.571,30.5767,38.75,88,100,15.03,RU,11/26/2024
287,Kochenëvo,55.0218,82.202,15.19,90,56,4.16,RU,11/26/2024
288,Beau Vallon,-20.4189,57.6953,77.23,83,40,8.05,MU,11/26/2024
289,Zemio,5.0314,25.1361,78.01,35,36,0.51,CF,11/26/2024
290,Xilin Hot,43.9667,116.0333,6.57,67,100,19.6,CN,11/26/2024
291,Tazacorte,28.629,-17.9293,72.14,86,75,5.75,ES,11/26/2024
292,Cabo San Lucas,22.8909,-109.9124,80.51,46,21,1.01,MX,11/26/2024
293,Tamanghasset,22.785,5.5228,71.51,17,0,8.05,DZ,11/26/2024
294,Puerto Aisén,-45.4,-72.7,53.96,91,100,3.56,CL,11/26/2024
295,Kavaratti,10.5669,72.642,82.71,68,100,9.73,IN,11/26/2024
296,Pacific Grove,36.6177,-121.9166,52.38,93,75,8.99,US,11/26/2024
297,Zag,46.9441,99.165,-3.17,85,33,5.21,MN,11/26/2024
298,Sisimiut,66.9395,-53.6735,17.82,74,100,14.12,GL,11/26/2024
299,Coquimbo,-29.9533,-71.3436,65.93,68,0,18.41,CL,11/26/2024
300,Tortolì,39.9256,9.6572,66.02,82,0,3.44,IT,11/26/2024
301,Chālūs,36.655,51.4204,58.46,88,75,0.0,IR,11/26/2024
302,Geraldton,-28.7667,114.6,59.41,67,0,16.31,AU,11/26/2024
303,Hāgere Hiywet,8.9833,37.85,62.89,61,39,3.09,ET,11/26/2024
304,Wajir,1.7471,40.0573,89.56,48,20,4.61,KE,11/26/2024
305,Minas de Marcona,-15.2119,-75.1103,70.3,49,80,14.92,PE,11/26/2024
306,Coari,-4.085,-63.1414,94.8,40,44,0.25,BR,11/26/2024
307,Eket,4.6412,7.9209,81.03,75,39,9.44,NG,11/26/2024
308,Zelenoborskiy,66.845,32.3622,37.96,97,95,13.42,RU,11/26/2024
309,Bāndarban,22.1965,92.2262,60.46,92,61,1.9,BD,11/26/2024
310,Shalkar,47.8288,59.6258,32.68,72,0,8.28,KZ,11/26/2024
311,Sambava,-14.2667,50.1667,77.86,86,12,8.63,MG,11/26/2024
312,Ambrizette,-7.2312,12.8666,78.21,83,61,9.98,AO,11/26/2024
313,Shitanjing,39.2342,106.3439,22.05,39,1,19.86,CN,11/26/2024
314,Vilyuchinsk,52.9306,158.4028,39.47,72,99,10.51,RU,11/26/2024
315,Sundsvall,62.3913,17.3063,31.96,100,75,5.75,SE,11/26/2024
316,Aripuanã,-9.1667,-60.6333,85.14,76,86,3.71,BR,11/26/2024
317,Hashtrūd,37.4779,47.0508,43.0,79,38,2.64,IR,11/26/2024
318,Kampong Dungun,3.2167,101.3167,80.78,99,100,10.87,MY,11/26/2024
319,Touros,-5.1989,-35.4608,84.47,56,32,13.62,BR,11/26/2024
320,Nola,40.922,14.5329,61.21,88,94,1.12,IT,11/26/2024
321,Andergrove,-21.0833,149.1833,76.42,81,12,6.6,AU,11/26/2024
322,Ebon,4.582,168.6964,81.95,81,69,14.99,MH,11/26/2024
323,Merkezefendi,37.7918,29.0667,38.55,68,6,2.3,TR,11/26/2024
324,Boca Suno,-0.7167,-77.1333,91.81,46,10,3.94,EC,11/26/2024
325,Holualoa,19.6228,-155.9522,70.86,74,40,6.91,US,11/26/2024
326,Saquarema,-22.92,-42.5103,79.75,68,0,14.5,BR,11/26/2024
327,Champerico,14.3,-91.9167,80.46,68,3,3.51,GT,11/26/2024
328,Torghay,49.6339,63.4981,30.06,75,0,7.58,KZ,11/26/2024
329,Avenal,36.0041,-120.129,51.57,97,100,8.9,US,11/26/2024
330,Klyuchi,52.2667,79.1667,11.39,95,74,3.74,RU,11/26/2024
331,Monteagudo,-19.8167,-63.9833,93.97,32,100,7.56,BO,11/26/2024
332,Kiunga,-6.1219,141.2906,74.7,99,100,1.32,PG,11/26/2024
333,Timimoun,29.2639,0.231,75.58,25,0,10.36,DZ,11/26/2024
334,Kailua-Kona,19.6406,-155.9956,74.59,70,40,6.91,US,11/26/2024
335,Yazman,29.1212,71.7446,71.67,28,0,7.43,PK,11/26/2024
336,Marinette,45.1,-87.6307,24.89,68,20,9.22,US,11/26/2024
337,Vorkuta,67.5,64.0,29.41,97,100,18.72,RU,11/26/2024
338,Prince Rupert,54.3161,-130.3201,35.29,72,100,12.66,CA,11/26/2024
339,Ivdel',60.6911,60.4206,31.71,69,100,6.58,RU,11/26/2024
340,Port Hedland,-20.3167,118.5667,82.45,74,96,11.5,AU,11/26/2024
341,Las Palmas de Gran Canaria,28.0997,-15.4134,73.53,78,40,16.11,ES,11/26/2024
342,Villa Gesell,-37.2639,-56.973,67.24,81,71,19.44,AR,11/26/2024
343,Kingston,17.997,-76.7936,77.95,89,75,12.66,JM,11/26/2024
344,Maridi,4.9158,29.4742,78.21,59,98,2.48,SS,11/26/2024
345,Marabá,-5.3686,-49.1178,91.58,55,40,3.44,BR,11/26/2024
346,Nouadhibou,20.931,-17.0347,75.18,64,74,11.5,MR,11/26/2024
347,Karratha,-20.7377,116.8463,81.23,63,82,14.81,AU,11/26/2024
348,Brisas de Zicatela,15.8369,-97.0419,81.88,49,1,5.41,MX,11/26/2024
349,Belle Fourche,44.6714,-103.8522,37.33,66,8,6.46,US,11/26/2024
350,Hirara,24.8,125.2833,70.07,68,100,25.32,JP,11/26/2024
351,Almansa,38.8692,-1.0971,55.78,68,100,3.6,ES,11/26/2024
352,Opuwo,-18.0607,13.84,83.88,18,33,17.45,NA,11/26/2024
353,San Rafael,-34.6177,-68.3301,73.76,28,48,8.72,AR,11/26/2024
354,Lorengau,-2.0226,147.2712,80.82,84,98,10.36,PG,11/26/2024
355,Lumbia,8.3958,124.5939,73.2,86,96,2.19,PH,11/26/2024
356,Muravlenko,63.7898,74.523,29.82,96,100,20.67,RU,11/26/2024
357,Tanūmah,27.1,44.1333,74.3,44,24,4.83,SA,11/26/2024
358,Katsuren-haebaru,26.3369,127.8719,69.82,68,100,10.36,JP,11/26/2024
359,New Norfolk,-42.7826,147.0587,60.93,97,99,0.81,AU,11/26/2024
360,Kolonia Town,6.964,158.206,82.4,83,40,4.61,FM,11/26/2024
361,Irecê,-11.3042,-41.8558,81.45,52,81,9.08,BR,11/26/2024
362,Sniatyn,48.4469,25.5694,27.55,94,6,3.02,UA,11/26/2024
363,Nishinoomote,30.7333,131.0,63.86,62,47,23.33,JP,11/26/2024
364,Myronivka,49.6601,30.9823,28.11,68,2,6.96,UA,11/26/2024
365,Antigonish,45.6169,-61.9986,43.83,94,100,3.0,CA,11/26/2024
366,Kayangel,8.0823,134.7173,83.57,81,84,19.64,PW,11/26/2024
367,Tazovsky,67.4667,78.7,27.91,86,66,20.74,RU,11/26/2024
368,Ivolginsk,51.7492,107.2837,11.86,92,100,4.47,RU,11/26/2024
369,Pisco,-13.7,-76.2167,68.05,83,75,11.5,PE,11/26/2024
370,Lodeynoye Pole,60.726,33.5531,39.76,89,100,9.15,RU,11/26/2024
371,São João de Pirabas,-0.7747,-47.1772,86.2,60,80,12.66,BR,11/26/2024
372,Ciudad General Terán,25.2667,-99.6833,64.45,66,99,7.31,MX,11/26/2024
373,Dul'durga,50.6761,113.5931,4.39,80,59,11.5,RU,11/26/2024
374,Armação de Búzios,-22.7469,-41.8817,84.36,79,1,21.47,BR,11/26/2024
375,Chui,-33.6971,-53.4616,77.92,67,25,10.56,UY,11/26/2024
376,Peace River,56.2501,-117.286,-5.49,77,0,5.75,CA,11/26/2024
377,Lae,-6.7221,146.9847,73.47,91,100,4.99,PG,11/26/2024
378,Puerto Santa,-8.9906,-78.6456,69.57,76,52,8.37,PE,11/26/2024
379,Malango,-2.9627,119.9001,66.9,98,99,2.62,ID,11/26/2024
380,Ishigaki,24.3448,124.1572,68.13,73,100,11.5,JP,11/26/2024
381,Strathmore,51.0501,-113.3852,-3.87,84,37,2.3,CA,11/26/2024
382,Nshamba,-1.7983,31.5511,63.52,82,36,2.86,TZ,11/26/2024
383,Seminole,28.7086,-81.2081,78.42,53,0,1.01,US,11/26/2024
384,Puerto Boyacá,5.9758,-74.5885,87.17,66,90,1.39,CO,11/26/2024
385,Arenápolis,-14.4503,-56.8461,87.67,57,38,7.72,BR,11/26/2024
386,Valle de La Pascua,9.2155,-66.0073,94.06,40,30,6.93,VE,11/26/2024
387,Tangalle,6.024,80.7911,78.24,84,100,19.48,LK,11/26/2024
388,Jaguarari,-10.2639,-40.1958,80.19,55,100,8.41,BR,11/26/2024
389,Inhambane,-23.865,35.3833,82.38,78,20,13.8,MZ,11/26/2024
390,Kambove,-10.8764,26.5969,64.63,93,77,1.48,CD,11/26/2024
391,Gilgit,35.9221,74.3087,32.86,41,0,4.07,PK,11/26/2024
392,São Vicente,-23.9631,-46.3919,78.98,31,20,5.99,BR,11/26/2024
393,Wuzhen,30.7454,120.4851,41.83,58,100,6.11,CN,11/26/2024
394,Bāfq,31.6128,55.4107,68.22,34,56,4.29,IR,11/26/2024
395,Kerikeri,-35.2268,173.9474,53.91,91,46,3.78,NZ,11/26/2024
396,Lā‘ie,21.6477,-157.9253,71.56,70,53,5.91,US,11/26/2024
397,Yuzhno-Kurilsk,44.0306,145.8556,41.05,72,100,18.39,RU,11/26/2024
398,Kamiiso,41.8167,140.65,55.78,94,75,18.41,JP,11/26/2024
399,Masterton,-40.9597,175.6575,49.1,96,52,2.19,NZ,11/26/2024
400,Luau,-10.7073,22.2247,66.6,95,100,4.36,AO,11/26/2024
401,Namdrik,5.5994,168.1028,83.21,76,71,12.73,MH,11/26/2024
402,Balabac,7.9868,117.0645,80.65,84,100,11.77,PH,11/26/2024
403,Anloga,5.7947,0.8973,83.5,70,1,12.57,GH,11/26/2024
404,Happy Valley-Goose Bay,53.3168,-60.3315,35.91,80,75,2.3,CA,11/26/2024
405,Nizhniy Ingash,56.2,96.53,18.3,91,94,6.89,RU,11/26/2024
406,Kargat,55.1956,80.2811,10.04,91,27,4.61,RU,11/26/2024
407,Rongelap,11.1635,166.8941,83.37,81,98,18.25,MH,11/26/2024
408,Alaghsas,17.0187,8.0168,82.29,16,0,20.71,NE,11/26/2024
409,Östersund,63.1792,14.6357,32.45,86,20,10.36,SE,11/26/2024
410,Machico,32.7,-16.7667,71.71,73,20,11.5,PT,11/26/2024
411,Zongolica,18.6667,-96.9833,65.12,53,1,5.64,MX,11/26/2024
412,Saint-François,46.4154,3.9054,49.44,88,0,0.0,FR,11/26/2024
413,Zaozërsk,69.4005,32.4476,30.22,75,100,18.72,RU,11/26/2024
414,Ironwood,46.4547,-90.171,16.61,93,100,13.8,US,11/26/2024
415,Majene,-3.5403,118.9707,76.95,87,100,4.54,ID,11/26/2024
416,Port Alfred,-33.5906,26.891,67.17,79,100,1.01,ZA,11/26/2024
417,Lincheng,19.9078,109.6858,68.59,80,84,8.23,CN,11/26/2024
418,Xichang,27.8964,102.2634,47.5,88,97,3.49,CN,11/26/2024
419,Taoudenni,22.6783,-3.9836,82.85,16,0,12.46,ML,11/26/2024
420,Selkirk,50.1436,-96.8845,25.21,92,95,4.92,CA,11/26/2024
421,Uusikaupunki,60.8004,21.4084,43.32,81,97,13.87,FI,11/26/2024
422,Eforie Sud,44.0229,28.6494,42.75,71,11,4.41,RO,11/26/2024
423,Argos,37.6333,22.7333,52.0,54,10,1.63,GR,11/26/2024
424,Aleysk,52.4926,82.7822,11.26,97,54,4.97,RU,11/26/2024
425,Daru,-9.0763,143.2092,79.93,89,100,10.18,PG,11/26/2024
426,Palmer,42.1584,-72.3287,41.83,78,100,8.05,US,11/26/2024
427,Yaguajay,22.3272,-79.2378,79.61,74,53,14.16,CU,11/26/2024
428,Gonābād,34.3529,58.6837,58.39,32,6,2.71,IR,11/26/2024
429,Nanao,37.05,136.9667,54.93,72,100,10.83,JP,11/26/2024
430,Mengcheng Chengguanzhen,33.2661,116.566,40.57,53,0,12.75,CN,11/26/2024
431,Dzhezkazgan,47.7833,67.7667,25.38,93,0,11.18,KZ,11/26/2024
432,Magadan,59.5667,150.8,7.52,59,0,5.88,RU,11/26/2024
433,Takoradze,4.8845,-1.7554,82.44,73,0,11.45,GH,11/26/2024
434,Campo Gallo,-26.5833,-62.85,90.95,52,100,2.1,AR,11/26/2024
435,Westport,41.1415,-73.3579,54.81,91,100,12.66,US,11/26/2024
436,Chos Malal,-37.3781,-70.2709,76.06,9,0,21.74,AR,11/26/2024
437,Basco,20.4487,121.9702,77.97,78,100,30.98,PH,11/26/2024
438,Mersing,2.4312,103.8405,78.71,89,20,2.3,MY,11/26/2024
439,Trongsa,27.5026,90.5072,38.07,87,100,2.57,BT,11/26/2024
440,Hithadhoo,-0.6,73.0833,82.4,80,100,16.8,MV,11/26/2024
441,Red Deer,52.2668,-113.802,-5.31,77,0,4.61,CA,11/26/2024
442,Cologne,50.9333,6.95,50.97,76,40,6.91,DE,11/26/2024
443,Mitchell,43.7094,-98.0298,28.17,63,0,9.22,US,11/26/2024
444,Newnham,-41.3833,147.1333,59.95,94,100,2.3,AU,11/26/2024
445,Guarapari,-20.6667,-40.4975,76.57,67,40,12.28,BR,11/26/2024
446,Rundu,-17.9333,19.7667,84.24,35,56,7.83,NA,11/26/2024
447,Sinop Province,41.7711,34.8709,27.68,91,72,6.31,TR,11/26/2024
448,Gedaref,14.0349,35.3834,80.55,22,1,9.17,SD,11/26/2024
449,Riyadh,24.6877,46.7219,78.67,23,33,8.03,SA,11/26/2024
450,Tambopata,-12.7333,-69.1833,89.49,62,75,8.05,PE,11/26/2024
451,Dalandzadgad,43.5708,104.425,22.08,50,0,18.59,MN,11/26/2024
452,Dakhla,23.6848,-15.958,73.42,83,40,11.5,EH,11/26/2024
453,Hede,33.7681,120.2517,39.87,47,0,14.58,CN,11/26/2024
454,Greenland,43.0362,-70.8328,38.97,85,100,3.44,US,11/26/2024
455,Verwood,50.8758,-1.8702,48.02,85,20,1.14,GB,11/26/2024
456,Turpan,42.9333,89.1667,31.39,41,0,1.9,CN,11/26/2024
457,Bikenibeu Village,1.3673,173.1241,82.36,83,20,12.66,KI,11/26/2024
458,Bushehr,28.9684,50.8385,73.49,46,20,0.0,IR,11/26/2024
459,Nova Russas,-4.7067,-40.5631,99.57,17,31,7.65,BR,11/26/2024
460,Flying Fish Cove,-10.4217,105.6791,82.69,78,70,2.82,CX,11/26/2024
461,Lejanías,3.5251,-74.0216,78.49,79,35,6.49,CO,11/26/2024
462,Bac Lieu,9.285,105.7244,79.79,80,98,12.93,VN,11/26/2024
463,La Tuque,47.4334,-72.7824,32.25,86,85,3.44,CA,11/26/2024
464,Intendente Alvear,-35.2338,-63.592,85.33,49,96,5.57,AR,11/26/2024
465,Rāvar,31.2656,56.8055,63.36,33,42,2.17,IR,11/26/2024
466,Hatillo,18.4863,-66.8254,88.57,72,55,10.0,PR,11/26/2024
467,Coxim,-18.5067,-54.76,96.46,33,100,5.79,BR,11/26/2024
468,Bereket,39.2446,55.5154,57.81,50,1,13.98,TM,11/26/2024
469,Dongola,19.1667,30.4833,64.74,30,25,11.88,SD,11/26/2024
470,Khanty-Mansiysk,61.0042,69.0019,28.51,59,0,15.66,RU,11/26/2024
471,Urucará,-2.5364,-57.76,99.59,32,99,5.14,BR,11/26/2024
472,Neya,58.2972,43.8681,28.9,71,86,8.81,RU,11/26/2024
473,Agat Village,13.3886,144.6585,81.75,86,0,12.66,GU,11/26/2024
474,Yaring,6.8662,101.3689,78.26,91,100,8.32,TH,11/26/2024
475,Genhe,50.7833,121.5167,12.85,92,100,11.01,CN,11/26/2024
476,Papao,-17.75,-149.55,82.08,78,66,10.89,PF,11/26/2024
477,Usinsk,65.9939,57.5281,33.64,96,100,27.09,RU,11/26/2024
478,Tidjikja,18.5564,-11.4271,87.58,8,33,10.87,MR,11/26/2024
479,Savanna-la-Mar,18.219,-78.1332,78.93,97,100,6.13,JM,11/26/2024
480,Saint-Pierre,-21.3393,55.4781,78.48,69,40,5.75,RE,11/26/2024
481,Marsá Maţrūḩ,31.3525,27.2453,62.8,63,40,9.22,EG,11/26/2024
482,Jabor,5.921,169.6434,82.69,77,63,12.75,MH,11/26/2024
483,Ranchettes,41.2186,-104.7903,42.28,55,0,18.41,US,11/26/2024
484,Abū Zabad,12.35,29.25,74.89,26,0,11.27,SD,11/26/2024
485,Elko,41.0002,-115.5012,33.75,94,100,5.99,US,11/26/2024
486,Sidhi,24.4167,81.8833,63.19,45,23,2.15,IN,11/26/2024
487,P’ot’i,42.1462,41.672,49.05,83,100,3.83,GE,11/26/2024
488,Sinaloa de Leyva,25.8333,-108.2333,82.47,33,45,2.57,MX,11/26/2024
489,Sinabang,2.4803,96.3801,78.58,85,100,7.09,ID,11/26/2024
490,Antsiranana,-12.2787,49.2917,78.08,82,14,13.02,MG,11/26/2024
491,Isangel,-19.55,169.2667,76.78,93,94,7.09,VU,11/26/2024
492,Zyryanskoye,56.8306,86.6258,20.05,86,16,10.18,RU,11/26/2024
493,Santa Terezinha,-29.9002,-50.0904,71.78,89,98,6.11,BR,11/26/2024
494,Marabu,4.4148,114.0089,78.94,100,40,0.0,MY,11/26/2024
495,Suva,-18.1416,178.4415,74.68,94,75,3.44,FJ,11/26/2024
496,Calama,-22.4667,-68.9333,75.69,16,0,19.57,CL,11/26/2024
497,Nemuro,43.3236,145.575,44.04,71,100,23.85,JP,11/26/2024
498,Thinadhoo,0.5333,72.9333,82.42,80,100,17.2,MV,11/26/2024
499,Shyryayeve,47.3805,30.1964,29.82,46,9,4.99,UA,11/26/2024
500,Ṭikāpur,28.5,81.1333,59.74,53,0,4.68,NP,11/26/2024
501,Prado,-17.3411,-39.2208,78.84,59,82,8.93,BR,11/26/2024
502,Joshīmath,30.5667,79.5667,40.77,53,6,4.18,IN,11/26/2024
503,Diego de Almagro,-26.3667,-70.05,84.63,19,5,12.44,CL,11/26/2024
504,Orizona,-17.0314,-48.2958,81.01,60,77,4.65,BR,11/26/2024
505,Amahai,-3.3333,128.9167,80.17,81,100,4.29,ID,11/26/2024
506,Tashtyp,52.7939,89.8983,16.99,93,13,2.55,RU,11/26/2024
507,Yerofey Pavlovich,53.9667,121.9667,7.9,90,100,5.39,RU,11/26/2024
508,Severo-Yeniseyskiy,60.3725,93.0408,17.67,89,100,14.41,RU,11/26/2024
509,Kigoma,-4.8769,29.6267,75.85,76,65,5.14,TZ,11/26/2024
510,Swakopmund,-22.6833,14.5333,63.99,77,48,14.0,NA,11/26/2024
511,Ust'-Ilimsk,58.0006,102.6619,11.93,98,100,5.39,RU,11/26/2024
512,Altamont,42.2068,-121.7372,35.78,89,40,4.61,US,11/26/2024
513,Verāval,20.9,70.3667,77.05,37,92,10.29,IN,11/26/2024
514,Huambo,-12.7761,15.7392,78.6,50,88,5.75,AO,11/26/2024
515,North Platte,41.1239,-100.7654,33.69,69,20,0.0,US,11/26/2024
516,Kwolla,8.9333,9.2833,81.84,19,6,6.35,NG,11/26/2024
517,Shenjiamen,29.9576,122.298,50.63,50,89,18.63,CN,11/26/2024
518,Yemetsk,63.4721,41.7941,39.92,90,100,11.9,RU,11/26/2024
519,Tsiombe,-25.3,45.4833,85.12,60,41,11.39,MG,11/26/2024
520,Nova Sintra,14.8667,-24.7167,76.5,81,5,17.54,CV,11/26/2024
521,Boa Vista,2.8197,-60.6733,93.18,46,75,11.5,BR,11/26/2024
522,Naze,28.3667,129.4833,61.72,64,52,12.75,JP,11/26/2024
523,Pagar Alam,-4.0167,103.2667,70.32,99,100,1.03,ID,11/26/2024
524,Miðvágur,62.0511,-7.1939,38.23,81,75,12.66,FO,11/26/2024
525,Luba,3.4568,8.5547,81.23,75,19,4.74,GQ,11/26/2024
526,Whakatane,-37.9585,176.9854,57.51,99,53,4.23,NZ,11/26/2024
527,Mongoumba,3.6415,18.5936,79.02,43,83,2.04,CF,11/26/2024
528,Nabire,-3.3667,135.4833,77.22,92,100,2.59,ID,11/26/2024
529,Gīdolē,5.65,37.3667,65.17,58,95,0.76,ET,11/26/2024
530,Kirakira,-10.4544,161.9205,80.19,86,96,6.49,SB,11/26/2024
531,Island Harbour,50.724,-1.2758,44.98,55,51,2.59,GB,11/26/2024
532,Chamical,-30.36,-66.314,83.57,61,86,7.11,AR,11/26/2024
533,Fort Bragg,35.139,-79.006,62.82,95,100,6.91,US,11/26/2024
534,Izhmorskiy,56.194,86.6414,15.58,84,19,8.01,RU,11/26/2024
535,Impfondo,1.6381,18.0667,74.8,87,98,3.6,CG,11/26/2024
536,Vyshkovo,48.0491,23.4211,39.36,94,100,1.16,UA,11/26/2024
537,Ibimirim,-8.5406,-37.6903,88.5,40,97,2.08,BR,11/26/2024
538,Katpur,21.05,71.7833,77.02,45,19,10.96,IN,11/26/2024
539,Raja,8.4596,25.678,79.57,25,3,5.08,SS,11/26/2024
540,Jatobá,-9.1831,-38.2689,91.2,38,100,6.89,BR,11/26/2024
541,Rajkot,22.3,70.7833,76.57,26,2,7.58,IN,11/26/2024
542,Borogontsy,62.6683,131.1683,-23.51,100,93,2.28,RU,11/26/2024
543,San Juanito,28.0,-107.5833,67.26,18,92,5.64,MX,11/26/2024
544,Sorong,-0.8833,131.25,81.19,80,40,3.42,ID,11/26/2024
545,Bathsheba,13.2167,-59.5167,88.41,66,20,23.02,BB,11/26/2024
546,Lompoc,34.6391,-120.4579,60.69,83,100,5.75,US,11/26/2024
547,Awjilah,29.1081,21.2869,58.42,45,0,8.12,LY,11/26/2024
548,Gaspé,48.8334,-64.4819,41.22,81,75,4.61,CA,11/26/2024
549,Semnan,35.5729,53.3971,55.44,45,2,3.67,IR,11/26/2024
550,Shakawe,-18.3667,21.85,79.54,51,77,7.45,BW,11/26/2024
551,Vera Cruz,-12.6333,-41.0333,81.18,55,90,7.11,BR,11/26/2024
552,Babayurt,43.6002,46.7789,45.84,71,100,3.83,RU,11/26/2024
553,Tadine,-21.55,167.8833,74.16,93,100,13.85,NC,11/26/2024
554,Guadalupe,25.6833,-100.25,68.34,67,93,4.88,MX,11/26/2024
555,Marāt,25.0701,45.4615,77.07,30,71,5.82,SA,11/26/2024
556,Bubaque,11.2833,-15.8333,83.19,66,0,10.78,GW,11/26/2024
557,Winnemucca,40.973,-117.7357,37.45,81,75,0.0,US,11/26/2024
558,Tsimmerbude,54.675,20.1347,48.97,91,100,9.1,RU,11/26/2024
559,Sosnogorsk,63.6023,53.8817,35.42,87,100,13.35,RU,11/26/2024
560,Formosa do Rio Preto,-11.0483,-45.1931,84.33,56,88,4.07,BR,11/26/2024
561,Fort St. John,56.2499,-120.8529,13.89,79,20,12.66,CA,11/26/2024
562,Ālbū Kamāl,34.45,40.9186,48.61,60,16,15.41,SY,11/26/2024
563,Akjoujt,19.6969,-14.4164,93.47,7,18,11.36,MR,11/26/2024
564,Bandar Lampung,-5.4254,105.258,76.05,94,100,3.11,ID,11/26/2024
565,Serenje,-13.2325,30.2352,64.08,95,100,8.25,ZM,11/26/2024
566,Ancud,-41.8697,-73.8203,55.6,66,49,13.22,CL,11/26/2024
567,Darwin,-12.4611,130.8418,78.89,90,100,0.0,AU,11/26/2024
568,Port Macquarie,-31.4333,152.9167,69.08,87,9,4.0,AU,11/26/2024
569,Zhangye,38.9342,100.4517,19.72,63,0,5.32,CN,11/26/2024
570,Nantucket,41.2835,-70.0995,51.91,82,75,14.97,US,11/26/2024
571,Raduzhny,62.0961,77.475,30.96,79,100,16.51,RU,11/26/2024
572,Gokarna,14.55,74.3167,79.03,62,100,10.69,IN,11/26/2024
573,Petoskey,45.3733,-84.9553,33.73,94,100,11.01,US,11/26/2024
574,Āsmār,35.0333,71.3581,45.1,29,0,10.04,AF,11/26/2024
575,Vogošća,43.9019,18.3481,39.07,100,40,3.44,BA,11/26/2024
576,Strathalbyn,-35.2667,138.9,59.52,98,86,13.82,AU,11/26/2024
577,Cunha,-23.0744,-44.9597,83.01,38,12,4.23,BR,11/26/2024
578,San Patricio,28.017,-97.5169,60.01,53,100,4.72,US,11/26/2024
579,Sona,45.4388,10.8255,44.85,99,75,2.3,IT,11/26/2024
580,Harper,4.375,-7.7169,81.43,75,31,9.75,LR,11/26/2024
581,Gizo Government Station,-8.103,156.8419,82.83,78,70,6.6,SB,11/26/2024
582,Egilsstadir,65.2653,-14.3948,24.71,80,19,3.44,IS,11/26/2024
583,Kalmunai,7.4167,81.8167,75.61,91,100,22.79,LK,11/26/2024
584,Perryton,36.4,-100.8027,49.19,61,0,21.85,US,11/26/2024
585,Enewetak,11.3474,162.3373,82.9,82,100,17.74,MH,11/26/2024
586,Spring Creek,40.7266,-115.5859,35.71,89,100,5.99,US,11/26/2024
587,Ternate,0.8,127.4,79.95,82,97,5.26,ID,11/26/2024
588,Twon-Brass,4.3151,6.2418,82.53,75,78,14.85,NG,11/26/2024
589,Itapuí,-22.2333,-48.7192,91.72,30,67,5.68,BR,11/26/2024
590,Raduzhny,62.0961,77.475,30.96,79,100,16.51,RU,11/26/2024
591,Dingli,35.8614,14.3822,64.81,68,20,5.75,MT,11/26/2024
592,Bandarbeyla,9.4942,50.8122,79.65,78,25,16.75,SO,11/26/2024
593,Nuku'alofa,-21.1333,-175.2,75.54,88,75,5.75,TO,11/26/2024
594,Alofi,-19.0595,-169.9187,75.09,94,100,5.75,NU,11/26/2024
595,Lubang,13.8584,120.124,82.26,76,42,21.34,PH,11/26/2024
596,Beryozovo,63.9381,65.0419,34.48,80,100,18.95,RU,11/26/2024
597,Garagoa,5.0824,-73.3633,76.14,60,69,6.22,CO,11/26/2024
